City_ID,City,Lat,Lng,Max Temp,Humidity,Cloudiness,Wind Speed,Country,Date
0,New Richmond,45.123,-92.5366,275.97,93,0,2.06,US,1675904865
1,Hithadhoo,-0.6,73.0833,300.58,72,99,4.65,MV,1675904865
2,Busselton,-33.65,115.3333,294.62,55,0,5.27,AU,1675904673
3,Hermanus,-34.4187,19.2345,293.6,81,30,6.05,ZA,1675904866
4,Yerbogachen,61.2767,108.0108,252.19,98,100,2.08,RU,1675904867
5,Bolivar,37.6145,-93.4105,284.34,97,100,0.45,US,1675904868
6,Barra Patuca,15.8,-84.2833,297.9,81,0,5.25,HN,1675904869
7,Andenes,69.3143,16.1194,274.14,86,100,3.6,NO,1675904869
8,Sfantu Gheorghe,45.8667,25.7833,254.72,99,62,1.06,RO,1675904870
9,Sterling,39.0062,-77.4286,285.34,57,40,2.06,US,1675904789
10,Grindavik,63.8424,-22.4338,271.5,58,100,13.99,IS,1675904871
11,Klaksvik,62.2266,-6.589,275.66,65,89,18.63,FO,1675904871
12,Georgetown,5.4112,100.3354,300.11,94,40,2.06,MY,1675904176
13,Rikitea,-23.1203,-134.9692,299.82,72,6,6.24,PF,1675904873
14,Mahebourg,-20.4081,57.7,299.4,83,33,5.58,MU,1675904874
15,Kapaa,22.0752,-159.319,301.14,64,20,9.77,US,1675904874
16,San Juan,-31.5375,-68.5364,303.74,31,16,2.19,AR,1675904875
17,Kloulklubed,7.0419,134.2556,299.43,74,100,5.12,PW,1675904876
18,Nacala,-14.5428,40.6728,297.14,92,100,3.03,MZ,1675904876
19,Panguipulli,-39.6333,-72.3333,288.71,76,0,0.44,CL,1675904877
20,Mataura,-46.1927,168.8643,286.75,53,67,4.77,NZ,1675904878
21,Albany,42.6001,-73.9662,275.67,74,37,1.78,US,1675904386
22,Ponta Do Sol,32.6667,-17.1,287.99,74,18,2.94,PT,1675904879
23,Murgab,37.4966,61.9714,278.98,55,100,6.59,TM,1675904880
24,Cape Town,-33.9258,18.4232,295.32,66,0,3.13,ZA,1675904698
25,Luena,-11.7833,19.9167,290.01,84,100,1.51,AO,1675904881
26,Hobart,-42.8794,147.3294,294.29,58,75,4.12,AU,1675904454
27,Chuy,-33.6971,-53.4616,295.4,81,92,4.39,UY,1675904882
28,Bethel,41.3712,-73.414,279.35,64,0,0.0,US,1675904883
29,Maryborough,-25.5333,152.7,301.15,52,100,6.3,AU,1675904884
30,Jamestown,42.097,-79.2353,273.95,83,0,1.54,US,1675904884
31,Nikolskoye,59.7035,30.7861,275.09,95,100,3.94,RU,1675904885
32,Clyde River,70.4692,-68.5914,238.28,68,75,3.09,CA,1675904886
33,Vagur,61.4732,-6.8119,276.68,69,83,18.76,FO,1675904887
34,Marzuq,14.4,46.4667,290.54,30,42,2.07,YE,1675904887
35,Olafsvik,64.8945,-23.7142,268.67,69,100,13.63,IS,1675904888
36,Punta Arenas,-53.15,-70.9167,285.99,58,20,8.23,CL,1675904725
37,Yuanping,38.7153,112.7575,270.12,89,90,1.11,CN,1675904731
38,Ushuaia,-54.8,-68.3,283.96,93,75,2.06,AR,1675904555
39,East London,-33.0153,27.9116,292.96,92,100,0.77,ZA,1675904726
40,Hay River,60.8156,-115.7999,258.81,93,41,3.43,CA,1675904890
41,Atuona,-9.8,-139.0333,299.37,76,52,10.01,PF,1675904880
42,Noumea,-22.2763,166.4572,304.26,99,100,3.86,NC,1675904818
43,Saint-Philippe,-21.3585,55.7679,297.92,86,72,5.41,RE,1675904891
44,Salinas,36.6777,-121.6555,291.46,70,0,3.6,US,1675904700
45,Isangel,-19.55,169.2667,298.54,93,100,5.43,VU,1675904892
46,Marsa Matruh,31.3525,27.2453,284.6,62,91,5.32,EG,1675904893
47,Roma,43.2128,-75.4557,276.33,85,0,0.0,US,1675904254
48,Santa Cruz,-17.8,-63.1667,298.85,83,75,3.6,BO,1675904894
49,Guerrero Negro,27.9769,-114.0611,290.4,44,19,5.13,MX,1675904672
50,Mogadishu,2.0371,45.3438,297.92,84,25,6.5,SO,1675904895
51,Tiznit,29.5833,-9.5,282.31,65,0,0.27,MA,1675904896
52,Bluff,-46.6,168.3333,286.93,65,91,8.17,NZ,1675904731
53,Najran,17.4924,44.1277,288.51,42,10,1.36,SA,1675904794
54,Guarapari,-20.6667,-40.4975,299.2,91,100,1.39,BR,1675904898
55,Yellowknife,62.456,-114.3525,249.57,76,47,3.58,CA,1675904899
56,Victoria,22.2855,114.1577,292.57,89,97,5.36,HK,1675904763
57,Kahului,20.8947,-156.47,300.16,56,20,7.6,US,1675904901
58,Hilo,19.7297,-155.09,299.0,68,100,4.12,US,1675904901
59,Cabedelo,-6.9811,-34.8339,299.52,80,74,4.73,BR,1675904902
60,Zhezkazgan,47.8043,67.7144,253.94,94,8,6.26,KZ,1675904903
61,Korla,41.7597,86.1469,270.59,69,5,0.28,CN,1675904904
62,Markova,48.6758,24.4138,262.21,92,6,1.87,UA,1675904904
63,Merke,42.8728,73.1786,273.94,87,100,1.29,KZ,1675904905
64,Vardo,70.3705,31.1107,276.14,70,96,20.06,NO,1675904905
65,Tsevie,6.4261,1.2133,299.13,80,74,2.14,TG,1675904906
66,Mpraeso,6.5932,-0.7346,295.08,88,95,1.63,GH,1675904907
67,Ostrovnoy,68.0531,39.5131,272.85,83,100,16.96,RU,1675904907
68,Lompoc,34.6391,-120.4579,294.23,69,0,5.81,US,1675904908
69,Chokurdakh,70.6333,147.9167,240.3,96,100,2.17,RU,1675904909
70,Butaritari,3.0707,172.7902,300.49,80,36,9.38,KI,1675904910
71,Severnyy,50.677,36.5532,260.17,92,19,3.13,RU,1675904911
72,Samarai,-10.6167,150.6667,299.1,90,100,7.17,PG,1675904912
73,Neuquen,-38.9516,-68.0591,303.4,23,0,2.69,AR,1675904912
74,Sao Jose Da Coroa Grande,-8.8978,-35.1478,298.58,78,98,2.74,BR,1675904913
75,San Pedro,14.35,121.0167,301.1,69,100,6.48,PH,1675904913
76,Chengde,40.9725,117.9361,271.42,36,100,1.35,CN,1675904914
77,Katangli,51.7102,143.2326,247.03,82,6,5.44,RU,1675904914
78,Sao Filipe,14.8961,-24.4956,294.18,72,50,3.58,CV,1675904915
79,Northam,51.0333,-4.2167,279.6,90,100,4.38,GB,1675904916
80,Upernavik,72.7868,-56.1549,239.58,80,2,3.47,GL,1675904917
81,Haines Junction,60.7522,-137.5108,263.54,97,48,0.86,CA,1675904917
82,Barcelona,41.3888,2.159,281.88,68,20,4.12,ES,1675904844
83,Arraial Do Cabo,-22.9661,-42.0278,296.98,87,100,2.8,BR,1675904918
84,Longyearbyen,78.2186,15.6401,268.06,86,100,8.75,SJ,1675904919
85,Cockburn Town,21.4612,-71.1419,298.29,77,0,11.01,TC,1675904919
86,Saskylakh,71.9167,114.0833,231.75,99,53,2.76,RU,1675904920
87,Promyshlennaya,54.9159,85.6385,252.68,100,91,0.95,RU,1675904920
88,Vao,-22.6667,167.4833,299.49,81,100,6.88,NC,1675904921
89,Verkh-Chebula,56.0308,87.6218,256.84,97,100,1.74,RU,1675904921
90,Takaungu,-3.6837,39.8566,298.68,81,96,3.04,KE,1675904922
91,Laguna,38.421,-121.4238,290.14,53,0,2.57,US,1675904923
92,Mehamn,71.0357,27.8492,277.12,65,100,21.61,NO,1675904924
93,Khatanga,71.9667,102.5,230.21,100,59,1.96,RU,1675904925
94,Thompson,55.7435,-97.8558,256.99,95,67,2.4,CA,1675904925
95,Port Alfred,-33.5906,26.891,292.69,98,100,1.39,ZA,1675904926
96,Cayenne,4.9333,-52.3333,298.17,94,75,4.63,GF,1675904926
97,Mitsamiouli,-11.3847,43.2844,300.13,80,84,2.94,KM,1675904927
98,Sorland,67.667,12.6934,275.52,83,100,5.44,NO,1675904927
99,Neklyudovo,56.4114,43.9814,268.14,98,94,1.39,RU,1675904928
100,Chumikan,54.7183,135.315,243.9,85,24,7.18,RU,1675904929
101,Castro,-24.7911,-50.0119,290.02,79,0,2.2,BR,1675904929
102,Vaini,-21.2,-175.2,302.24,74,75,4.12,TO,1675904930
103,Leningradskiy,69.3833,178.4167,245.36,95,100,2.26,RU,1675904931
104,Ayan,56.45,138.1667,246.4,68,70,2.49,RU,1675904931
105,Havre-Saint-Pierre,50.2334,-63.5986,262.35,62,0,9.77,CA,1675904931
106,Seoul,37.5683,126.9778,273.81,66,0,1.54,KR,1675904726
107,Airai,-8.9266,125.4092,293.32,77,100,1.84,TL,1675904932
108,Aden,12.7794,45.0367,297.51,72,0,1.83,YE,1675904922
109,Berlevag,70.8578,29.0864,277.15,60,100,21.09,NO,1675904933
110,Vila Franca Do Campo,37.7167,-25.4333,286.38,72,95,4.45,PT,1675904933
111,Norman Wells,65.282,-126.8329,251.54,96,100,1.25,CA,1675904934
112,Kisangani,0.5167,25.2,293.92,84,68,1.31,CD,1675904935
113,Antsohihy,-14.8796,47.9875,295.2,96,100,1.09,MG,1675904936
114,Tasiilaq,65.6145,-37.6368,258.24,54,92,3.95,GL,1675904936
115,Hurghada,27.2574,33.8129,285.98,63,100,6.81,EG,1675904937
116,Bengkulu,-3.8004,102.2655,298.27,74,100,1.43,ID,1675904938
117,Rapid Valley,44.0625,-103.1463,277.26,79,100,6.69,US,1675904790
118,Passo De Camaragibe,-9.2368,-35.4901,297.9,81,98,1.66,BR,1675904939
119,Ponta Delgada,37.7333,-25.6667,286.55,62,75,3.6,PT,1675904939
120,San Quintin,30.4833,-115.95,289.2,40,0,3.89,MX,1675904940
121,Petropavlovsk-Kamchatskiy,53.0452,158.6483,261.48,62,20,2.0,RU,1675904940
122,Republic,37.12,-93.4802,283.81,85,100,2.57,US,1675904941
123,Esperance,-33.8667,121.9,292.94,67,55,5.33,AU,1675904942
124,Camacha,33.0833,-16.3333,284.83,76,40,5.14,PT,1675904942
125,Matveyevka,52.15,56.1833,257.75,96,100,1.87,RU,1675904943
126,Sinnamary,5.3833,-52.95,297.56,89,100,5.16,GF,1675904944
127,Komsomolskiy,40.4272,71.7189,275.55,80,100,2.06,UZ,1675904944
128,Ahipara,-35.1667,173.1667,294.27,60,38,4.81,NZ,1675904945
129,Avarua,-21.2078,-159.775,302.18,74,54,5.66,CK,1675904487
130,Cabo San Lucas,22.8909,-109.9124,296.76,35,0,0.0,MX,1675904651
131,Hami,42.8,93.45,272.6,49,100,2.69,CN,1675904946
132,Griffith,41.5284,-87.4237,277.11,76,75,1.54,US,1675904749
133,Orbetello,42.4408,11.2196,275.43,65,65,4.24,IT,1675904947
134,Djambala,-2.5447,14.7533,295.26,81,99,1.22,CG,1675904948
135,Arona,28.0996,-16.681,287.5,67,75,2.57,ES,1675904949
136,Nome,64.5011,-165.4064,256.19,71,100,2.57,US,1675904812
137,Preobrazheniye,42.9019,133.9064,266.2,54,2,3.15,RU,1675904950
138,Evensk,61.95,159.2333,248.53,76,18,5.29,RU,1675904950
139,Beibei,29.8256,106.4339,285.02,89,100,0.34,CN,1675904951
140,Tuktoyaktuk,69.4541,-133.0374,239.14,100,28,1.81,CA,1675904952
141,Codrington,-38.2667,141.9667,295.72,52,5,3.13,AU,1675904953
142,Aborlan,9.4352,118.5492,300.04,78,87,5.19,PH,1675904953
143,Santa Fe,-31.6333,-60.7,300.37,68,100,0.89,AR,1675904954
144,Chara,56.9064,118.2631,248.6,81,42,0.33,RU,1675904955
145,Conselheiro Lafaiete,-20.6603,-43.7861,291.26,99,100,1.81,BR,1675904956
146,Brasileia,-11.0161,-68.7481,296.56,94,100,1.11,BR,1675904701
147,Kaitangata,-46.2817,169.8464,287.77,47,59,6.0,NZ,1675904956
148,Rio Grande,-32.035,-52.0986,297.58,83,99,7.78,BR,1675904957
149,Darasun,51.6667,114.0,251.8,99,100,0.17,RU,1675904958
150,Darnah,32.767,22.6367,284.37,88,100,11.43,LY,1675904958
151,Grenaa,56.4158,10.8783,275.27,77,81,10.53,DK,1675904959
152,Souillac,-20.5167,57.5167,297.82,86,40,5.12,MU,1675904960
153,Huarmey,-10.0681,-78.1522,296.15,83,9,3.14,PE,1675904960
154,Lubango,-14.9172,13.4925,288.42,71,100,1.67,AO,1675904961
155,Yinchuan,38.4681,106.2731,268.7,84,5,2.68,CN,1675904961
156,Bredasdorp,-34.5322,20.0403,291.88,80,0,5.32,ZA,1675904962
157,Sakakah,29.9697,40.2064,278.77,71,97,2.7,SA,1675904963
158,Rocha,-34.4833,-54.3333,294.75,79,3,4.48,UY,1675904964
159,Pevek,69.7008,170.3133,238.71,100,100,3.33,RU,1675904965
160,Carnarvon,-24.8667,113.6333,300.38,65,90,7.29,AU,1675904966
161,Oistins,13.0667,-59.5333,299.2,73,40,7.72,BB,1675904966
162,Alofi,-19.0595,-169.9187,303.09,70,75,3.6,NU,1675904967
163,Severo-Kurilsk,50.6789,156.125,268.24,64,87,10.42,RU,1675904968
164,Tomohon,1.3346,124.8392,296.67,70,82,0.9,ID,1675904968
165,Kirakira,-10.4544,161.9205,301.76,77,100,4.08,SB,1675904969
166,New Norfolk,-42.7826,147.0587,294.1,50,93,1.79,AU,1675904970
167,Vestmannaeyjar,63.4427,-20.2734,271.92,61,100,15.02,IS,1675904970
168,Faanui,-16.4833,-151.75,300.38,73,16,3.87,PF,1675904971
169,Kandiari,26.9156,68.5216,291.07,25,3,1.58,PK,1675904971
170,Ribeira Grande,38.5167,-28.7,286.36,75,42,4.47,PT,1675904972
171,Nanortalik,60.1432,-45.2371,271.04,87,100,2.64,GL,1675904973
172,San Carlos De Bariloche,-41.1456,-71.3082,289.74,51,0,3.72,AR,1675904973
173,Puerto Ayora,-0.7393,-90.3518,299.57,90,83,3.58,EC,1675904974
174,Yanji,42.9075,129.5078,265.97,61,14,1.12,CN,1675904975
175,Xining,36.6167,101.7667,266.57,72,3,0.69,CN,1675904976
176,Bambous Virieux,-20.3428,57.7575,299.38,83,36,5.42,MU,1675904977
177,Dikson,73.5069,80.5464,256.43,87,100,6.29,RU,1675904978
178,Hiriyur,13.9456,76.6192,293.25,60,66,2.14,IN,1675904781
179,Mazagao,-0.115,-51.2894,300.18,95,100,1.54,BR,1675904978
180,Constitucion,-35.3333,-72.4167,288.6,82,32,5.3,CL,1675904979
181,Cidreira,-30.1811,-50.2056,297.83,82,62,8.21,BR,1675904740
182,Fairbanks,64.8378,-147.7164,260.15,82,100,0.0,US,1675904980
183,Qianjiang,30.4151,112.8859,279.26,90,100,4.86,CN,1675904980
184,Vila,42.0304,-8.1588,277.64,73,0,2.0,PT,1675904981
185,Natal,-5.795,-35.2094,300.27,74,20,6.17,BR,1675904465
186,Port Macquarie,-31.4333,152.9167,299.2,56,100,5.2,AU,1675904982
187,Milkovo,54.7167,158.6167,257.38,88,100,1.53,RU,1675904982
188,Port Blair,11.6667,92.75,297.68,70,100,3.17,IN,1675904815
189,Itarema,-2.9248,-39.9167,299.12,79,100,4.22,BR,1675904983
190,Kankakee,41.15,-87.8667,276.99,83,100,2.06,US,1675904984
191,Hofn,64.2539,-15.2082,269.39,48,0,6.5,IS,1675904984
192,Pudozh,61.8099,36.5345,271.79,97,100,4.59,RU,1675904985
193,Bahir Dar,11.5936,37.3908,290.57,53,1,2.15,ET,1675904986
194,Ucluelet,48.9329,-125.5528,279.0,91,100,5.03,CA,1675904987
195,Gerash,27.6652,54.1371,282.14,51,58,3.28,IR,1675904988
196,Aulla,44.2146,9.9678,276.73,48,2,3.83,IT,1675904989
197,Tessaoua,13.7574,7.9874,291.93,19,19,4.44,NE,1675904915
198,Marakkanam,12.2,79.95,294.71,81,100,2.01,IN,1675904990
199,Lebu,-37.6167,-73.65,288.48,93,2,4.44,CL,1675904990
200,Xiuyan,40.2928,123.2744,271.41,31,100,0.64,CN,1675904991
201,Moyale,3.5167,39.0584,293.95,42,8,3.89,KE,1675904991
202,Pisco,-13.7,-76.2167,296.18,83,0,9.26,PE,1675904842
203,Ulladulla,-35.35,150.4667,293.22,92,100,5.51,AU,1675904992
204,Ust-Kuyga,70.0167,135.6,223.47,100,92,2.18,RU,1675904993
205,Labuhan,-6.8844,112.2051,299.64,84,99,3.79,ID,1675904993
206,Sambava,-14.2667,50.1667,296.74,89,87,3.44,MG,1675904994
207,Santander,43.4647,-3.8044,280.07,87,0,1.54,ES,1675904994
208,Sinjar,36.3209,41.8754,274.22,86,37,1.21,IQ,1675904995
209,Coquimbo,-29.9533,-71.3436,291.0,88,0,3.09,CL,1675904996
210,Kavieng,-2.5744,150.7967,301.45,73,100,3.65,PG,1675904996
211,Aginskoye,51.1,114.53,251.14,100,99,0.56,RU,1675904997
212,Surt,31.2089,16.5887,286.78,42,0,11.04,LY,1675904997
213,Weare,43.0948,-71.7306,276.43,77,2,0.45,US,1675904998
214,Tabou,4.423,-7.3528,298.67,86,84,0.59,CI,1675904998
215,Mnogovershinnyy,53.9353,139.9242,244.7,79,30,1.61,RU,1675904999
216,Bilma,18.6853,12.9164,291.9,18,0,2.52,NE,1675905000
217,Katsuura,35.1333,140.3,280.28,46,100,6.09,JP,1675905000
218,Torbay,47.6666,-52.7314,272.91,94,100,7.72,CA,1675905001
219,Dingle,10.9995,122.6711,299.31,78,100,6.27,PH,1675905002
220,Mar Del Plata,-38.0023,-57.5575,294.87,87,0,3.09,AR,1675904729
221,Monterey,36.2505,-121.2516,286.99,54,6,2.24,US,1675904832
222,Kushiro,42.975,144.3747,268.52,56,88,6.04,JP,1675905004
223,Richards Bay,-28.783,32.0377,295.09,93,100,5.46,ZA,1675904884
224,Rawlins,41.7911,-107.2387,268.09,68,20,11.83,US,1675905006
225,Caravelas,-17.7125,-39.2481,298.39,79,12,3.51,BR,1675905002
226,Alice Springs,-23.7,133.8833,305.9,25,2,2.57,AU,1675905007
227,Asfi,32.2994,-9.2372,286.48,83,69,4.04,MA,1675905008
228,Mount Gambier,-37.8333,140.7667,297.11,40,0,2.29,AU,1675905009
229,Bang Pakong,13.543,100.9933,302.64,100,3,1.27,TH,1675905010
230,Husavik,66.0449,-17.3389,265.89,75,62,4.2,IS,1675905011
231,Sao Joao Da Barra,-21.6403,-41.0511,296.26,95,100,3.31,BR,1675905012
232,College,64.8569,-147.8028,260.14,81,75,0.0,US,1675905013
233,San Ignacio,17.1561,-89.0714,298.23,78,0,2.06,BZ,1675905013
234,Pitimbu,-7.4706,-34.8086,299.48,81,95,4.05,BR,1675905014
235,Bandarbeyla,9.4942,50.8122,296.99,78,54,5.35,SO,1675905014
236,Hualmay,-11.0964,-77.6139,296.1,82,21,4.05,PE,1675905015
237,Clarence Town,-32.5833,151.7833,299.79,72,100,1.45,AU,1675905016
238,Pyapon,16.2833,95.6833,291.49,50,34,2.7,MM,1675905017
239,Zyryanka,65.75,150.85,239.14,94,97,1.07,RU,1675905017
240,Whitehorse,60.7161,-135.0538,268.88,62,7,7.6,CA,1675904921
241,Galle,6.0367,80.217,296.91,87,100,1.6,LK,1675904732
242,Nisia Floresta,-6.0911,-35.2086,299.6,84,20,3.7,BR,1675904919
243,Boysun,38.2061,67.1986,276.32,86,100,0.52,UZ,1675905019
244,Leeton,-34.5667,146.4,303.09,43,8,3.05,AU,1675905020
245,Vila Velha,-20.3297,-40.2925,300.12,82,0,4.12,BR,1675904930
246,Tessalit,20.1986,1.0114,292.88,20,0,4.95,ML,1675905021
247,Ancud,-41.8697,-73.8203,288.05,96,11,2.64,CL,1675905021
248,Ocos,14.5094,-92.1933,300.25,73,0,4.66,GT,1675905022
249,Port Elizabeth,-33.918,25.5701,293.88,92,100,1.54,ZA,1675904726
250,Niquero,20.0431,-77.5828,298.75,70,89,3.85,CU,1675905024
251,Poum,-20.2333,164.0167,300.84,81,100,4.7,NC,1675905025
252,Cabra,37.4725,-4.4421,280.48,82,79,1.17,ES,1675905025
253,Marshall,34.3834,-86.3333,292.27,70,40,0.0,US,1675904983
254,Orcopampa,-15.2661,-72.3417,281.79,81,100,2.24,PE,1675905027
255,Viedma,-40.8135,-62.9967,292.78,57,100,4.15,AR,1675905028
256,Sitka,57.0531,-135.33,277.09,65,75,6.69,US,1675905029
257,Maumere,-8.6199,122.2111,300.06,79,100,1.41,ID,1675905030
258,Fenoarivo,-18.933,47.4354,291.19,100,75,3.09,MG,1675905031
259,Kodiak,57.79,-152.4072,273.88,25,0,0.0,US,1675905031
260,Barrow,71.2906,-156.7887,249.16,70,100,0.0,US,1675905033
261,Redmond,47.674,-122.1215,282.58,74,35,1.29,US,1675904953
262,Namibe,-15.1961,12.1522,294.33,73,100,3.45,AO,1675905034
263,Ekhabi,53.5102,142.9671,244.53,93,100,6.55,RU,1675905035
264,Margate,51.3813,1.3862,275.76,66,82,4.8,GB,1675905036
265,Abha,18.2164,42.5053,283.29,62,0,0.0,SA,1675905036
266,Saint-Georges,12.0564,-61.7485,297.94,80,64,6.25,GD,1675905037
267,Ous,60.9058,61.5186,265.33,88,100,2.96,RU,1675905037
268,Aasiaat,68.7098,-52.8699,247.18,81,79,4.47,GL,1675905038
269,Itarare,-24.1125,-49.3317,292.1,90,1,2.29,BR,1675905039
270,Talnakh,69.4865,88.3972,251.98,95,100,4.07,RU,1675905039
271,Nueva Gerona,21.8833,-82.8,298.26,73,0,5.42,CU,1675905040
272,Faya,18.3851,42.4509,283.44,59,6,1.57,SA,1675905040
273,Paamiut,61.994,-49.6678,270.93,91,100,12.91,GL,1675905041
274,Khuzhir,53.1939,107.3397,257.27,96,86,2.0,RU,1675905042
275,Hamilton,39.1834,-84.5333,283.7,86,100,3.09,US,1675905042
276,Chapais,49.7834,-74.8492,253.35,100,61,1.28,CA,1675905043
277,Naze,28.3667,129.4833,289.41,69,100,7.94,JP,1675905043
278,Deputatskiy,69.3,139.9,230.69,99,89,1.81,RU,1675905044
279,Riyadh,24.6877,46.7219,284.23,45,28,4.53,SA,1675905045
280,Saint-Esteve,42.7131,2.843,281.23,90,75,2.06,FR,1675905045
281,Centralia,46.7162,-122.9543,281.27,86,40,0.0,US,1675905046
282,Christchurch,-43.5333,172.6333,292.86,55,75,6.69,NZ,1675904519
283,Mount Isa,-20.7333,139.5,303.02,58,40,4.12,AU,1675905046
284,Qaanaaq,77.484,-69.3632,241.14,66,16,2.85,GL,1675905047
285,Geraldton,-28.7667,114.6,298.38,57,0,5.66,AU,1675905047
286,Pacific Grove,36.6177,-121.9166,291.23,78,0,2.68,US,1675905048
287,Witu,-2.3889,40.4382,298.24,92,29,2.48,KE,1675905048
288,Trincomalee,8.5711,81.2335,298.72,78,100,3.98,LK,1675905049
289,Rypefjord,70.6333,23.6667,274.41,93,100,4.63,NO,1675905049
290,Machiques,10.0644,-72.545,298.94,70,18,5.19,VE,1675905050
291,Sisimiut,66.9395,-53.6735,255.46,79,100,2.87,GL,1675905050
292,Lata,40.1629,-8.3327,280.33,78,25,2.91,PT,1675905051
293,Teya,60.3778,92.6267,251.61,100,100,1.29,RU,1675905052
294,Broken Hill,-31.95,141.4333,304.12,13,0,2.71,AU,1675905052
295,Touros,-5.1989,-35.4608,299.65,79,16,6.03,BR,1675905052
296,Yerbabuena,20.9667,-101.2667,293.0,37,67,2.03,MX,1675905053
297,Toora-Khem,52.4675,96.11,256.1,99,100,0.12,RU,1675905054
298,Sandwick,60.0,-1.25,279.05,70,40,19.55,GB,1675905054
299,Kenai,60.5544,-151.2583,270.2,75,75,2.06,US,1675905055
300,Umm Lajj,25.0213,37.2685,290.46,44,100,7.14,SA,1675905056
301,Natitingou,10.3042,1.3796,297.44,18,8,1.92,BJ,1675905056
302,Padang,-0.9492,100.3543,296.18,88,97,2.12,ID,1675905057
303,Ngaoundere,7.3167,13.5833,292.3,21,19,1.68,CM,1675905057
304,Portland,45.5234,-122.6762,284.16,70,0,0.45,US,1675904541
305,Kavaratti,10.5669,72.642,299.39,73,100,2.56,IN,1675905058
306,Binzhou,37.3667,118.0167,276.47,48,100,4.47,CN,1675905059
307,Zhigansk,66.7697,123.3711,231.79,97,100,3.95,RU,1675905059
308,Kashi,39.4547,75.9797,267.95,73,29,1.42,CN,1675905060
309,Lobito,-12.3481,13.5456,296.49,81,94,1.26,AO,1675905061
310,Clonakilty,51.6231,-8.8706,278.71,89,32,3.75,IE,1675905061
311,Mormugao,15.4,73.8,295.74,88,20,2.06,IN,1675905062
312,Harper,4.375,-7.7169,298.59,87,96,0.53,LR,1675905063
313,Southbridge,42.0751,-72.0334,277.62,70,5,1.34,US,1675905063
314,Ilulissat,69.2167,-51.1,252.16,54,5,3.09,GL,1675905064
315,Lidkoping,58.5052,13.1577,275.16,78,100,8.89,SE,1675905065
316,Gainesville,29.6516,-82.3248,293.76,64,0,3.09,US,1675904976
317,Shiyan,32.6475,110.7781,277.01,98,100,0.34,CN,1675905066
318,Villa De Reyes,21.8,-100.9333,291.86,41,97,4.04,MX,1675905067
319,Conakry,9.538,-13.6773,298.24,70,12,2.58,GN,1675904923
320,Mumford,5.2618,-0.759,299.14,87,100,2.57,GH,1675905068
321,Aswan,24.0934,32.907,285.23,41,100,5.69,EG,1675905069
322,Lagoa,39.05,-27.9833,286.46,68,100,5.12,PT,1675905069
323,Iqaluit,63.7506,-68.5145,248.77,89,100,6.32,CA,1675905070
324,Jimma,7.6667,36.8333,287.75,43,6,0.14,ET,1675905071
325,Jalu,29.0331,21.5482,284.1,47,86,6.27,LY,1675905071
326,Tuatapere,-46.1333,167.6833,285.91,64,79,4.95,NZ,1675905064
327,Kununurra,-15.7667,128.7333,305.14,62,27,4.12,AU,1675905072
328,Hammond,41.5834,-87.5,277.16,75,75,1.54,US,1675905073
329,Solnechnyy,50.7214,136.6319,251.01,88,9,0.72,RU,1675905073
330,Chardara,41.2547,67.9692,276.45,91,100,3.99,KZ,1675905074
331,Veraval,20.9,70.3667,294.71,37,37,3.5,IN,1675905075
332,Urucara,-2.5364,-57.76,296.81,94,67,1.13,BR,1675905075
333,Kyshtovka,56.555,76.6271,248.1,100,100,2.2,RU,1675905076
334,Hecun,36.5333,114.1111,273.58,91,100,0.39,CN,1675905077
335,Urusha,54.05,122.9,249.17,95,100,0.73,RU,1675905077
336,Mokhsogollokh,61.4681,128.9203,230.96,99,98,0.99,RU,1675905078
337,Kasongo-Lunda,-6.4667,16.8167,293.5,96,91,0.2,CD,1675905079
338,Okhotsk,59.3833,143.3,245.29,82,23,6.15,RU,1675905080
339,Rudbar,30.15,62.6,292.0,44,100,4.95,AF,1675905080
340,Eston,51.1501,-108.7514,264.03,87,78,4.17,CA,1675905081
341,Tocopilla,-22.092,-70.1979,295.92,81,45,2.86,CL,1675905082
342,Dumas,35.8656,-101.9732,280.11,36,0,4.12,US,1675904868
343,Chilca,-12.5211,-76.7372,296.19,85,10,3.82,PE,1675905084
344,Hasaki,35.7333,140.8333,282.2,45,6,8.96,JP,1675905085
345,Port Lincoln,-34.7333,135.8667,297.84,55,0,5.27,AU,1675905086
346,Esna,25.2934,32.554,284.8,40,100,3.45,EG,1675905087
347,Lithakia,37.7167,20.8333,272.8,55,100,6.31,GR,1675905088
348,Khani,41.9563,42.9566,269.91,90,97,1.58,GE,1675905089
349,Pedernales,18.0384,-71.744,298.2,67,0,2.08,DO,1675905089
350,Payyannur,12.1,75.2,295.25,89,97,1.94,IN,1675905090
351,Takoradi,4.8845,-1.7554,299.06,87,70,2.03,GH,1675905090
352,Arman,59.7,150.1667,252.6,78,100,4.21,RU,1675905091
353,North Bend,43.4065,-124.2243,284.22,87,75,0.0,US,1675904917
354,Saint-Augustin,51.226,-58.6502,264.85,97,100,2.63,CA,1675905092
355,Havoysund,70.9963,24.6622,277.28,99,100,10.75,NO,1675905092
356,Provideniya,64.3833,-173.3,253.21,65,100,4.0,RU,1675905048
357,Cherskiy,68.75,161.3,239.55,97,100,3.44,RU,1675905093
358,Hazleton,40.9584,-75.9746,276.62,70,0,0.0,US,1675905094
359,Nizhniy Kuranakh,58.8353,125.4869,245.64,99,96,0.67,RU,1675905094
360,San Patricio,28.017,-97.5169,289.07,73,93,2.22,US,1675905095
361,Qui Nhon,13.7667,109.2333,296.86,87,100,2.21,VN,1675905095
362,Cap Malheureux,-19.9842,57.6142,299.52,77,27,2.68,MU,1675905096
363,Balkanabat,39.5108,54.3671,278.61,79,100,1.66,TM,1675905097
364,Verkhnyaya Toyma,62.2349,44.9985,259.36,100,97,1.82,RU,1675905097
365,San Vicente,-26.6167,-54.1333,296.03,42,30,0.77,AR,1675905098
366,Tiksi,71.6872,128.8694,232.86,99,60,2.45,RU,1675905098
367,Quatre Cocos,-20.2078,57.7625,299.31,84,40,5.23,MU,1675905099
368,Lorengau,-2.0226,147.2712,300.97,72,100,3.89,PG,1675905099
369,Chivay,-15.6383,-71.6011,282.31,86,100,1.97,PE,1675905100
370,Luderitz,-26.6481,15.1594,290.11,97,56,5.03,NA,1675905101
371,Seddon,-37.8068,144.8916,302.64,63,20,3.09,AU,1675905101
372,Marfino,55.7028,37.3822,270.3,89,100,2.0,RU,1675905102
373,Pontianak,-0.0333,109.3333,297.14,94,20,1.03,ID,1675905102
374,Gangakher,18.95,76.75,292.62,38,91,1.07,IN,1675905104
375,Odweyne,9.4092,45.064,291.47,61,2,2.27,SO,1675905104
376,Half Moon Bay,37.4636,-122.4286,290.89,65,20,3.09,US,1675905105
377,Otjiwarongo,-20.4637,16.6477,290.87,79,24,3.24,NA,1675905105
378,Ambulu,-8.345,113.6058,298.32,88,100,1.41,ID,1675905106
379,Vredendal,-31.6683,18.5012,294.55,61,100,0.88,ZA,1675905106
380,Siniscola,40.5719,9.6922,275.9,72,97,2.6,IT,1675905107
381,Suhbaatar,50.2314,106.2078,245.03,100,100,0.63,MN,1675905108
382,Kalundborg,55.6795,11.0886,273.72,70,100,11.39,DK,1675905108
383,Presidencia Roque Saenz Pena,-26.7852,-60.4388,304.37,26,78,2.37,AR,1675905109
384,Baruun-Urt,46.6806,113.2792,260.94,93,100,2.58,MN,1675905109
385,Xuddur,4.1213,43.8894,293.79,73,6,6.09,SO,1675905110
386,Ahome,25.9167,-109.1833,292.12,58,0,5.16,MX,1675905019
387,Slonim,53.0867,25.3219,268.64,91,97,2.12,BY,1675905111
388,Manta,-0.95,-80.7333,298.9,81,91,2.66,EC,1675905112
389,San Cristobal,7.7669,-72.225,295.25,75,18,0.65,VE,1675905112
390,Kalmunai,7.4167,81.8167,296.96,87,98,2.59,LK,1675905113
391,Kiunga,-6.1219,141.2906,297.5,94,100,1.4,PG,1675905113
392,Bathsheba,13.2167,-59.5167,299.49,73,40,7.72,BB,1675905114
393,Saldanha,-33.0117,17.9442,292.74,72,70,3.94,ZA,1675905115
394,Mahanoro,-19.9,48.8,296.13,92,100,0.99,MG,1675905115
395,Kontagora,10.3999,5.4695,297.25,16,10,2.99,NG,1675905116
396,Magadan,59.5667,150.8,252.33,71,100,2.44,RU,1675905116
397,San Policarpo,12.1791,125.5072,299.69,82,100,7.06,PH,1675905117
398,Moindou,-21.6924,165.677,301.88,72,100,2.42,NC,1675905117
399,Oranjemund,-28.55,16.4333,290.3,96,28,1.19,NA,1675905118
400,La Peca,-5.6111,-78.435,294.58,79,22,2.02,PE,1675905119
401,Antofagasta,-23.65,-70.4,294.75,82,58,2.02,CL,1675905120
402,Woodward,36.4337,-99.3904,279.24,50,0,0.0,US,1675905120
403,Obera,-27.4871,-55.1199,299.83,32,75,0.98,AR,1675905121
404,Along,28.1667,94.7667,283.52,83,72,0.65,IN,1675905121
405,Naica,27.85,-105.4833,285.88,17,0,2.4,MX,1675905122
406,Acarau,-2.8856,-40.12,299.02,81,94,4.4,BR,1675904911
407,Kibaya,-5.3,36.5667,287.68,97,100,1.01,TZ,1675905123
408,Cusco,-13.5183,-71.9781,286.28,67,40,1.03,PE,1675905124
409,Gibara,21.1097,-76.1317,297.77,75,0,7.9,CU,1675905125
410,Malanje,-9.5402,16.341,289.15,86,99,1.55,AO,1675905125
411,Wewak,-3.5534,143.6268,299.01,89,100,4.57,PG,1675905126
412,Sabratah,32.7933,12.4885,284.75,80,32,12.49,LY,1675905126
413,Kruisfontein,-34.0033,24.7314,289.75,84,80,1.42,ZA,1675905127
414,Aykhal,66.0,111.5,232.71,100,92,2.5,RU,1675905128
415,Nouakchott,18.0858,-15.9785,296.11,35,100,5.74,MR,1675905128
416,Ilhabela,-23.7781,-45.3581,296.73,87,9,2.25,BR,1675905128
417,Loubomo,-4.1997,12.6739,295.21,98,100,1.14,CG,1675905129
418,Chimbarongo,-34.7,-71.05,297.64,35,0,0.59,CL,1675905130
419,Almaznyy,48.0448,40.045,261.6,95,15,3.01,RU,1675905130
420,Porto Velho,-8.7619,-63.9039,297.18,94,0,1.03,BR,1675905068
421,Brewster,41.3973,-73.6171,279.77,66,0,0.0,US,1675905132
422,Jardim,-21.4803,-56.1381,296.18,88,38,1.25,BR,1675905132
423,Terenos,-20.4422,-54.8603,298.99,88,40,1.03,BR,1675905133
424,Rincon,32.296,-81.2354,289.17,81,20,2.06,US,1675905134
425,Ixtapa,20.7,-105.2,296.05,73,0,3.6,MX,1675905134
426,Belen,36.4891,36.2233,272.0,56,0,2.4,TR,1675905135
427,Marica,-22.9194,-42.8186,298.12,89,95,1.67,BR,1675904916
428,Banda Aceh,5.5577,95.3222,298.64,81,99,3.48,ID,1675905136
429,Yenagoa,4.9247,6.2642,299.22,84,91,1.76,NG,1675905137
430,Oussouye,12.485,-16.5469,293.61,68,0,3.83,SN,1675905137
431,Svetlyy,54.675,20.1347,272.18,80,100,7.1,RU,1675905138
432,Ozernovskiy,51.5,156.5167,267.26,63,67,1.95,RU,1675905139
433,Srednekolymsk,67.45,153.6833,240.21,95,100,3.17,RU,1675905139
434,Dargaville,-35.9333,173.8833,293.47,58,75,4.36,NZ,1675905140
435,Chubbuck,42.9208,-112.4661,271.09,64,0,2.06,US,1675905141
436,Muli,2.9167,73.5667,300.5,70,99,2.81,MV,1675905141
437,San Ramon,37.7799,-121.978,290.06,60,0,4.12,US,1675905063
438,Tucumcari,35.1717,-103.725,282.01,33,7,0.83,US,1675905142
439,Estelle,29.8458,-90.1067,297.04,84,100,6.69,US,1675905143
440,Vestmanna,62.1564,-7.1664,274.66,69,75,14.4,FO,1675905143
441,Poyarkovo,49.6,128.6833,249.1,99,84,1.56,RU,1675905144
442,Rawson,-43.3002,-65.1023,294.86,47,100,10.61,AR,1675905145
443,Saint George,37.1041,-113.5841,286.48,30,0,2.06,US,1675905146
444,Karratha,-20.7377,116.8463,304.62,56,1,1.02,AU,1675905146
445,Nyurba,63.2842,118.3319,224.63,100,66,0.86,RU,1675905147
446,Los Llanos De Aridane,28.6585,-17.9182,287.01,73,100,2.24,ES,1675905147
447,Barcelos,41.5388,-8.6151,284.09,72,0,3.17,PT,1675905021
448,Balaipungut,1.05,101.2833,296.5,97,100,0.16,ID,1675905148
449,Sri Aman,1.2376,111.4621,298.52,90,100,0.54,MY,1675905149
450,Trairi,-3.2778,-39.2689,298.81,77,100,3.0,BR,1675904999
451,San Pedro De Macoris,18.4616,-69.2972,297.49,87,98,5.44,DO,1675905150
452,West Helena,34.5507,-90.6418,293.97,84,94,6.99,US,1675905151
453,Jiazi,22.8779,116.067,289.76,86,100,7.86,CN,1675905152
454,Nemuro,43.3236,145.575,268.27,67,99,7.72,JP,1675905152
455,Sioux Lookout,50.1001,-91.917,269.15,93,97,3.09,CA,1675905153
456,Sorong,-0.8833,131.25,298.57,85,100,3.03,ID,1675905153
457,Suzun,53.7841,82.3116,248.01,100,75,0.38,RU,1675905154
458,Olinda,-8.0089,-34.8553,300.0,69,0,3.09,BR,1675905155
459,Paujiles,15.1,-87.35,289.91,78,6,1.38,HN,1675905155
460,Maunabo,18.0072,-65.8993,299.05,87,19,7.08,PR,1675905156
461,Boende,-0.2167,20.8667,294.95,85,36,1.15,CD,1675905157
462,Choma,-16.8065,26.9531,289.66,98,95,1.85,ZM,1675905157
463,Bayir,37.2687,28.2167,272.44,69,46,2.4,TR,1675905158
464,Vanavara,60.34,102.2797,255.71,99,100,1.08,RU,1675905158
465,Dinar,38.065,30.1656,267.13,89,7,2.16,TR,1675905159
466,Lumby,50.2498,-118.969,271.45,94,77,1.39,CA,1675905160
467,Lasa,46.6166,10.7002,267.98,77,33,0.88,IT,1675905160
468,Saint Anthony,45.0205,-93.218,276.11,74,0,5.14,US,1675905161
469,Paita,-5.0892,-81.1144,297.34,81,75,4.23,PE,1675905162
470,Banyo,6.75,11.8167,293.26,21,60,1.52,CM,1675905162
471,Meulaboh,4.1363,96.1285,298.04,86,90,2.03,ID,1675905163
472,Talcahuano,-36.7167,-73.1167,289.97,82,0,4.63,CL,1675905016
473,Alibag,18.6411,72.8792,297.19,48,66,2.21,IN,1675905164
474,Kendari,-3.945,122.4989,299.36,86,100,1.54,ID,1675905164
475,Bafra,41.5678,35.9069,276.94,84,100,3.92,TR,1675905165
476,Pacifica,37.6138,-122.4869,290.79,75,20,5.66,US,1675905165
477,Denpasar,-8.65,115.2167,300.96,83,40,1.54,ID,1675905017
478,Manavalakurichi,8.1333,77.3,295.93,75,11,2.36,IN,1675905166
479,San-Pedro,4.7485,-6.6363,298.15,90,43,1.17,CI,1675905167
480,Chicama,-7.8447,-79.1469,295.45,74,29,2.2,PE,1675905168
481,Hambantota,6.1241,81.1185,296.43,81,29,4.45,LK,1675905168
482,Praia Da Vitoria,38.7333,-27.0667,285.24,88,57,5.33,PT,1675905169
483,Kipini,-2.5257,40.5262,298.31,87,38,4.39,KE,1675905170
484,Rona De Jos,47.9167,24.0167,265.35,93,6,1.17,RO,1675905170
485,Fortuna,40.5982,-124.1573,283.52,94,0,3.09,US,1675905172
486,Yamoussoukro,6.8206,-5.2767,298.07,78,98,1.42,CI,1675905173
487,Moranbah,-22.0016,148.0466,300.07,57,84,8.69,AU,1675905173
488,Arlit,18.7369,7.3853,294.48,17,0,1.54,NE,1675905174
489,Sur,22.5667,59.5289,296.83,48,0,2.52,OM,1675905174
490,Jiwani,25.05,61.7417,295.25,84,0,2.88,PK,1675905175
491,Atambua,-9.1061,124.8925,298.51,85,100,2.61,ID,1675905176
492,Assare,-6.8744,-39.875,294.32,48,100,1.03,BR,1675905176
493,Baoding,38.8511,115.4903,275.04,55,100,1.33,CN,1675905029
494,Bilibino,68.0546,166.4372,233.18,96,78,0.4,RU,1675905177
495,Bailen,38.0964,-3.7779,282.13,82,5,2.65,ES,1675905177
496,Krasnoselkup,65.7,82.4667,254.6,91,100,6.74,RU,1675905178
497,Telde,27.9924,-15.4192,288.27,82,75,1.03,ES,1675905178
498,Kandrian,-6.2167,149.55,301.37,76,100,8.28,PG,1675905179
499,Pyinmana,19.7333,96.2167,290.29,38,9,1.16,MM,1675905179
500,Arvika,59.6553,12.5852,274.49,81,100,7.37,SE,1675905180
501,Los Banos,14.1667,121.1833,300.81,71,100,5.37,PH,1675905180
502,Carauari,-4.8828,-66.8958,296.54,96,99,0.94,BR,1675905181
503,Polyarnyye Zori,67.3661,32.4981,270.29,85,100,7.71,RU,1675905182
504,Praia,14.9215,-23.5087,293.45,73,75,4.63,CV,1675905183
505,Sombrio,-29.1139,-49.6167,295.89,93,1,3.0,BR,1675905183
506,Zanesville,39.9404,-82.0132,281.48,67,20,1.54,US,1675905184
507,Muhos,64.808,25.9931,276.03,87,100,7.75,FI,1675905184
508,Marinette,45.1,-87.6307,276.2,70,0,3.6,US,1675905185
509,Honningsvag,70.9821,25.9704,277.01,70,100,12.86,NO,1675905186
510,Okha,53.5739,142.9478,244.62,93,100,6.43,RU,1675905186
511,Okato,-39.2,173.8833,291.86,56,46,6.24,NZ,1675905187
512,Kieta,-6.2167,155.6333,302.71,68,100,3.13,PG,1675905188
513,Manokwari,-0.8667,134.0833,298.31,84,100,2.84,ID,1675905189
514,Mandalgovi,45.7625,106.2708,259.57,96,6,1.83,MN,1675904893
515,Aitape,-3.1374,142.3475,298.58,91,100,7.31,PG,1675905190
516,Matamoros,25.5333,-103.25,290.21,17,20,0.0,MX,1675905026
517,Bud,39.447,-86.1758,280.88,93,100,3.2,US,1675905190
518,Samfya,-11.3649,29.5565,289.81,94,100,1.82,ZM,1675905191
519,Sembakung,3.8167,117.25,298.7,81,33,1.07,ID,1675905192
520,La Palma,33.8464,-118.0467,296.66,42,0,3.6,US,1675905192
521,Otane,-39.8833,176.6333,295.69,44,40,3.81,NZ,1675905193
522,Gaspe,48.8334,-64.4819,264.48,81,42,7.03,CA,1675905194
523,Cafarnaum,-11.6936,-41.4683,292.82,57,4,2.13,BR,1675905194
524,Yurimaguas,-5.9,-76.0833,298.47,70,83,0.61,PE,1675905195
525,Zeya,53.75,127.2667,246.44,92,100,1.2,RU,1675905196
526,Upington,-28.4478,21.2561,295.28,57,0,4.15,ZA,1675905197
527,Zheleznodorozhnyy,55.7503,38.0042,270.45,97,100,1.78,RU,1675905197
528,Victoria Point,-27.5833,153.3,301.58,66,100,2.24,AU,1675905198
529,Kozan,37.4552,35.8157,273.1,51,0,4.22,TR,1675905199
530,Bitung,1.4451,125.1824,301.62,70,98,3.09,ID,1675905199
531,Dickinson,29.4608,-95.0513,285.4,87,100,5.66,US,1675905053
532,Stokmarknes,68.5646,14.9108,278.14,65,40,7.2,NO,1675905200
533,Bechem,7.0903,-2.025,295.23,87,49,1.15,GH,1675905201
534,Benavente,42.0025,-5.6783,275.74,78,0,2.68,ES,1675905202
535,Waipawa,-41.4122,175.5153,287.14,85,90,5.42,NZ,1675905203
536,Popova,42.9603,131.7228,263.36,74,4,1.7,RU,1675905204
537,Llangefni,53.2556,-4.3106,281.03,84,100,5.14,GB,1675905204
538,Joigny,47.9829,3.401,269.16,69,0,1.14,FR,1675905205
539,Kibala,9.1104,18.3463,296.77,17,7,2.56,TD,1675905206
540,Puerto Escondido,15.85,-97.0667,299.61,69,0,2.57,MX,1675905206
541,Yeniseysk,58.4497,92.1703,255.95,98,100,1.11,RU,1675905207
542,Swan River,52.1058,-101.2676,268.78,95,100,0.95,CA,1675905208
543,Sanchor,24.7553,71.7722,289.33,43,0,1.36,IN,1675905208
544,Bulawayo,-20.15,28.5833,290.58,81,5,2.09,ZW,1675905209
545,Bealanana,-14.55,48.7333,290.65,98,87,1.02,MG,1675905210
546,Collie,-33.3667,116.15,295.44,47,0,3.51,AU,1675905211
547,Lerwick,60.1545,-1.1494,279.15,72,100,16.16,GB,1675905211
548,Maddur,12.6,77.0667,291.29,69,82,0.87,IN,1675905211
549,Soubre,5.7856,-6.6083,296.78,95,100,0.63,CI,1675905212
550,Tukrah,32.5341,20.5791,284.33,74,79,13.66,LY,1675905213
551,Arrecife,28.963,-13.5477,286.14,76,0,2.06,ES,1675905213
552,North Platte,41.1239,-100.7654,274.88,83,0,4.02,US,1675905214
553,Itoman,26.1247,127.6694,295.16,68,40,5.66,JP,1675905214
554,Bukama,-9.2,25.85,292.02,97,71,0.75,CD,1675905215
555,Garh Maharaja,30.8339,71.9053,286.38,32,100,1.38,PK,1675905216
556,Maldonado,-34.6667,-54.9167,295.81,58,4,5.39,UY,1675905216
557,Fermo,43.1647,13.7233,277.44,58,98,2.96,IT,1675905217
558,Homer,59.6425,-151.5483,270.09,71,0,2.57,US,1675905218
559,Jaciara,-15.9653,-54.9683,295.99,91,99,1.04,BR,1675905218
560,Canton,23.1167,113.25,292.52,75,100,2.06,CN,1675905127
561,Klyuchi,52.2667,79.1667,248.5,100,92,1.59,RU,1675905219
562,Kaeo,-35.1,173.7833,297.22,58,85,2.32,NZ,1675905219
563,Goderich,43.7501,-81.7165,274.77,87,100,4.12,CA,1675905056
564,Shingu,33.7333,135.9833,281.72,42,23,2.11,JP,1675905221
565,Rundu,-17.9333,19.7667,292.36,95,100,3.2,NA,1675905221
566,Ituporanga,-27.4144,-49.6025,293.02,98,21,1.36,BR,1675905222
567,Port Keats,-14.25,129.55,304.29,66,39,5.15,AU,1675905069
568,Qunduz,36.729,68.857,279.69,71,100,1.68,AF,1675905223
569,Kodinsk,58.6881,99.1844,256.24,99,95,1.26,RU,1675905223
570,Bandrele,-12.9067,45.1914,300.01,83,20,2.06,YT,1675905224
571,Bolgatanga,10.7856,-0.8514,299.51,17,13,2.59,GH,1675905225
572,Koster,-25.863,26.8976,288.04,82,100,1.69,ZA,1675905225
573,Taltal,-25.4,-70.4833,294.11,82,42,1.86,CL,1675905226
574,Sobolevo,54.4299,31.8996,265.88,97,94,2.57,RU,1675905227
575,Pangoa,-12.1167,-73.0,293.42,99,96,0.62,PE,1675905227
576,Mangaratiba,-22.9597,-44.0406,295.95,89,30,0.92,BR,1675905228
577,Wajid,3.8093,43.2471,296.17,61,8,7.59,SO,1675905229
578,Nawada,24.8833,85.5333,284.31,55,0,2.28,IN,1675905229
579,Ampanihy,-24.7,44.75,297.75,73,100,1.36,MG,1675905230
